station,median,sd,min,mean,max,latitude,longitude
Abha,18.0,10.000047147412888,-40.5,18.005275885391125,65.9,18.2164282,42.5043596
Abidjan,26.0,9.997119737555328,-22.4,26.01224827820938,78.9,5.320357,-4.016107
Abéché,29.4,9.994160086928757,-24.0,29.405184246704337,82.2,13.8280295,20.8283652
Accra,26.4,9.994933752335823,-23.9,26.40062895808046,72.6,5.5571096,-0.2012376
Addis Ababa,16.0,10.004864349716268,-32.9,15.998930965186185,66.0,9.0,38.75
Adelaide,17.3,10.006204543732869,-31.3,17.29923250135705,68.4,-34.9281805,138.5999312
Aden,29.1,10.003472305977365,-22.8,29.092610718360667,79.1,12.789585,45.028504
Ahvaz,25.4,9.990180917839655,-25.5,25.406394437592375,74.3,31.3230637,48.67932
Albuquerque,14.0,10.007652161993066,-38.2,14.005004511652784,61.6,35.0841034,-106.650985
Alexandra,11.0,10.00669738044077,-37.6,11.011254630300767,62.2,-26.104444,28.098889
Alexandria,20.0,10.00600462904208,-30.6,19.9915935130792,68.6,31.1991806,29.8951716
Algiers,18.2,10.005284409893768,-31.6,18.20362054600299,66.9,36.7729333,3.0588445
Alice Springs,21.0,9.992831864016706,-30.0,21.005937983574352,74.3,-23.6983884,133.8812885
Almaty,10.0,9.991928815536795,-36.6,9.98218025472527,59.9,43.2363924,76.9457275
Amsterdam,10.2,9.991312273456042,-38.3,10.201154337113833,62.5,52.3730796,4.8924534
Anadyr,-6.9,9.998993365459782,-54.3,-6.909895430667065,43.1,64.7316875,177.5060925
Anchorage,2.8,10.00183702940053,-46.8,2.7907683211127883,49.8,61.2163129,-149.894852
Andorra la Vella,9.8,9.9980383570478,-43.0,9.805483143966502,60.8,42.49791845,1.5032263738029337
Ankara,12.0,10.001202276632014,-40.2,12.00029771418366,62.5,39.9207759,32.8540497
Antananarivo,17.9,10.007781029507097,-30.5,17.915081459046164,69.8,-18.9100122,47.5255809
Antsiranana,25.2,9.994078800126536,-24.1,25.202247841211623,73.7,-12.2779632,49.2913743
Arkhangelsk,1.3,9.998176684010916,-50.5,1.3000412079850077,52.7,64.543022,40.537121
Ashgabat,17.1,9.99670118066276,-30.5,17.10142952436612,68.5,37.93783215,58.235946718194526
Asmara,15.6,10.00231290060642,-34.0,15.59095531729628,63.0,15.3389667,38.9326763
Assab,30.5,9.999678491153569,-20.7,30.498891163883386,80.4,42.467094,46.500786
Astana,3.5,9.996278584120708,-44.9,3.493830052031627,56.8,51.1159933,71.46770587485393
Athens,19.2,10.00299653612252,-31.1,19.196176883580083,75.9,37.9755648,23.7348324
Atlanta,17.0,10.000523654188145,-35.4,17.0027033504587,74.0,33.7489924,-84.3902644
Auckland,15.2,9.997864039045623,-35.6,15.193691206163992,65.2,-36.852095,174.7631803
Austin,20.7,10.00341042274896,-28.2,20.71142005515588,69.5,30.2711286,-97.7436995
Baghdad,22.8,10.005427539020124,-27.9,22.761726758433177,72.8,33.3061701,44.3872213
Baguio,19.5,10.000972965738638,-28.7,19.508708878883425,68.6,16.4119905,120.5933719
Baku,15.1,9.998420509228108,-33.1,15.0804687438687,64.9,40.3755885,49.8328009
Baltimore,13.1,10.002034347506353,-40.4,13.08614903811216,65.4,39.2908816,-76.610759
Bamako,27.8,9.99422312548844,-29.4,27.80883042896828,80.9,12.649319,-8.000337
Bangkok,28.6,10.004177268381552,-19.9,28.601900026698154,82.3,13.7524938,100.4935089
Bangui,26.0,10.003579778488344,-24.2,25.99573051440091,72.9,4.3635118,18.5835913
Banjul,26.0,9.996869155035244,-23.4,26.011797571445197,74.9,13.45535,-16.575646
Barcelona,18.2,10.005991351483384,-35.3,18.19144318810895,65.2,41.3828939,2.1774322
Bata,25.1,9.998490919971196,-23.5,25.103843691661012,76.6,2.0064092000000002,9.908768301060093
Batumi,14.0,9.998447807800575,-42.4,13.997989379613824,65.9,41.6509502,41.6360085
Beijing,12.9,9.996496632710889,-35.4,12.903989194863724,62.5,40.190632,116.412144
Beirut,20.9,9.998627032032404,-28.5,20.904092551001575,73.1,33.88922645,35.50255852895232
Belgrade,12.5,9.993662528360016,-40.0,12.486110183046478,61.5,44.8178131,20.4568974
Belize City,26.7,10.00220251805072,-23.9,26.69303465804792,77.7,17.5002768,-88.1988737
Benghazi,19.9,10.004615341635166,-32.2,19.89946202926015,67.7,32.1200168,20.0812174
Bergen,7.7,9.999537542276116,-44.6,7.688591048592611,56.7,60.3943055,5.3259192
Berlin,10.3,10.009661216128572,-39.9,10.30767302114836,65.0,52.510885,13.3989367
Bilbao,14.7,9.99913610780994,-36.5,14.70237800716777,64.5,43.2630018,-2.9350039
Birao,26.5,10.002827375830144,-22.1,26.501670676836508,73.4,10.2961965,22.7809907
Bishkek,11.3,10.006028445418774,-40.0,11.29395865476424,61.9,42.8777895,74.6066926
Bissau,27.0,10.000281749655972,-23.4,26.99546176945316,78.6,11.861324,-15.583055
Blantyre,22.2,10.00048823696362,-28.4,22.208814453614593,72.1,-15.7862543,35.0035694
Bloemfontein,15.6,10.0041416371634,-32.3,15.606494042265355,67.2,-29.116395,26.215496
Boise,11.4,9.99649712059235,-39.2,11.403311845176198,63.3,43.6166163,-116.200886
Bordeaux,14.2,9.99342119881358,-36.2,14.20353065921889,65.4,44.841225,-0.5800364
Bosaso,30.0,10.001939414393853,-20.2,29.99704772869614,80.4,11.00261495,49.41072274526701
Boston,10.9,10.006973066078936,-39.9,10.907072632581158,63.8,42.3554334,-71.060511
Bouaké,26.0,9.998788999677156,-24.4,26.00226074960221,73.1,7.6890212,-5.0283552
Bratislava,10.5,9.998409388654668,-37.0,10.498976805837149,61.3,48.1516988,17.1093063
Brazzaville,25.0,9.993097735588124,-24.9,24.999745980642334,78.7,-4.2694407,15.2712256
Bridgetown,27.0,10.004857650737424,-24.4,26.982134036168866,75.8,13.0977832,-59.6184184
Brisbane,21.4,9.999286020527116,-27.5,21.408008102343462,73.6,-27.4689682,153.0234991
Brussels,10.5,9.99905845147115,-40.3,10.512127165639049,57.8,50.8465573,4.351697
Bucharest,10.8,9.99098008926705,-41.7,10.800264239468092,60.2,44.4361414,26.1027202
Budapest,11.3,9.998066811451558,-36.6,11.308379382822611,62.5,47.4978789,19.0402383
Bujumbura,23.8,9.994135371666104,-26.7,23.794229759154213,76.3,-3.3638125,29.3675028
Bulawayo,18.9,9.994276621397605,-31.9,18.90525410885483,70.7,-20.1053948,28.5426856
Burnie,13.1,10.00002366721684,-39.7,13.108832521115184,62.1,-41.0523688,145.9064073
Busan,15.0,9.998422934859333,-37.0,14.99194619018398,68.2,35.1799528,129.0752365
Cabo San Lucas,23.9,9.992543713348295,-25.2,23.894966015319397,74.4,22.8938884,-109.92006
Cairns,25.0,9.99293190830103,-29.8,25.00659468293668,74.9,-16.9206657,145.7721854
Cairo,21.4,10.005058495503745,-28.5,21.39997891784604,71.5,30.0443879,31.2357257
Calgary,4.4,9.996943235568388,-45.5,4.394278964323481,52.2,51.0456064,-114.057541
Canberra,13.1,10.004342768925303,-36.6,13.100406326955468,66.1,-35.2975906,149.1012676
Cape Town,16.2,9.996324475230043,-33.4,16.19679778361779,68.4,-33.9288301,18.4172197
Changsha,17.4,10.007764092166312,-30.3,17.394506003181224,65.4,28.1450774,113.2384362
Charlotte,16.1,10.00057468344204,-33.8,16.095316179763767,66.1,35.2272086,-80.8430827
Chiang Mai,25.8,10.003056862125266,-23.4,25.807338667569237,76.9,18.7882778,98.9858802
Chicago,9.8,10.002041618138296,-42.1,9.793078340534676,65.8,41.8755616,-87.6244212
Chihuahua,18.6,10.006724302712591,-31.0,18.608784209302637,67.2,28.5000001,-106.0000001
Chittagong,25.9,9.997901541113205,-22.6,25.9010380968954,73.8,22.333778,91.8344348
Chișinău,10.2,10.00105421996907,-42.7,10.184610910196575,61.0,47.0245117,28.8322923
Chongqing,18.6,9.991600454258329,-35.4,18.60097194245169,66.8,30.05518,107.8748712
Christchurch,12.2,9.993934853967543,-35.3,12.203988547387612,59.6,-43.530955,172.6364343
City of San Marino,11.8,10.000702273451765,-35.3,11.797097905459513,58.8,43.9363996,12.4466991
Colombo,27.4,9.999673645988011,-22.5,27.397141632021793,81.4,6.9388614,79.8542005
Columbus,11.7,10.001988345395404,-38.9,11.682752674475411,63.0,39.9622601,-83.0007065
Conakry,26.4,9.997137414427744,-23.9,26.396497883975773,78.0,9.5170602,-13.6998434
Copenhagen,9.1,10.002422247336124,-39.6,9.101847974330273,57.2,55.6867243,12.5700724
Cotonou,27.2,9.99831113599416,-22.8,27.204022058823504,79.6,6.3676953,2.4252507
Cracow,9.3,9.999852788091747,-46.8,9.303114208433978,60.5,50.0619474,19.9368564
Da Lat,17.9,10.000726804032505,-34.9,17.89997913493007,73.0,11.9402416,108.4375758
Da Nang,25.8,10.000015882372992,-23.0,25.791774627452696,73.9,16.068,108.212
Dakar,24.0,9.998502127403206,-24.3,23.99589138391037,77.7,14.693425,-17.447938
Dallas,19.0,9.996593721891118,-31.0,18.99038922012212,68.4,32.7762719,-96.7968559
Damascus,17.0,10.007804520507886,-33.9,17.000518664364982,71.4,33.5130695,36.3095814
Dampier,26.4,10.00179663948692,-22.9,26.39427293074113,74.5,-20.6624798,116.7119013
Dar es Salaam,25.8,10.002037085787377,-23.9,25.788617087048404,78.5,-6.8160837,39.2803583
Darwin,27.6,10.01070234646156,-26.1,27.596853993208512,77.6,-12.46044,130.8410469
Denpasar,23.7,9.998595152927468,-24.1,23.690471486108116,76.7,-8.6524973,115.2191175
Denver,10.4,10.002744941416198,-39.9,10.412203714984503,61.6,39.7392364,-104.984862
Detroit,10.0,9.994781011856444,-42.6,9.99535096167759,63.3,42.3315509,-83.0466403
Dhaka,25.9,9.997455276996266,-25.3,25.899151405770834,74.2,23.7544529,90.393336
Dikson,-11.1,9.995433809511962,-61.1,-11.099044893834842,37.1,73.5084564,80.5227886
Dili,26.6,10.000042258733972,-21.9,26.599548491037783,73.3,-8.5536809,125.5784093
Djibouti,29.9,10.004258523749066,-23.6,29.899778329934076,81.5,11.8145966,42.8453061
Dodoma,22.7,9.99461288485839,-28.2,22.700942721300695,72.1,-6.1791181,35.7468174
Dolisie,24.0,10.000299782783223,-32.2,23.993666317743298,74.0,-4.2005398,12.6791573
Douala,26.7,10.007630247620217,-21.0,26.693133462482283,75.8,4.0429389,9.7062018
Dubai,26.9,10.001524952421216,-28.2,26.911622095292923,82.0,25.074282349999997,55.18853865430702
Dublin,9.8,9.999375485631925,-43.4,9.80401505749877,59.7,53.3493795,-6.2605593
Dunedin,11.1,10.012427951668167,-36.1,11.10549158675444,59.3,-45.8740984,170.5035755
Durban,20.6,9.999486896078436,-28.3,20.608362824700812,72.3,-29.861825,31.009909
Dushanbe,14.7,9.997307831664056,-32.7,14.718276728988547,62.6,38.5762709,68.7863573
Edinburgh,9.3,10.007592859347955,-37.6,9.293244534362792,59.3,55.9533456,-3.1883749
Edmonton,4.2,9.99377854147847,-48.6,4.203198203126775,54.4,53.5462055,-113.491241
El Paso,18.1,9.997972283926368,-31.2,18.114081425821553,67.7,31.7601164,-106.4870404
Entebbe,21.0,9.989893465113058,-27.8,21.009417178218317,68.2,0.0611715,32.4698564
Erbil,19.5,10.000634318851786,-33.1,19.505502613861363,69.5,36.1911744,44.0094145
Erzurum,5.1,10.00096152210646,-45.7,5.08981896045867,55.3,39.90632,41.2727715
Fairbanks,-2.3,10.000916037343844,-50.9,-2.309254249579624,51.3,64.837845,-147.716675
Fianarantsoa,17.9,10.002067264321166,-32.5,17.903284610034646,67.0,-21.456444,47.085149
"Flores,  Petén",26.4,10.000191723490149,-28.3,26.408971819114043,75.0,16.9298524,-89.8914817
Frankfurt,10.6,10.002366025632858,-37.2,10.609488322678136,61.1,50.1106444,8.6820917
Fresno,17.9,10.001057654126305,-32.9,17.901527618113246,68.3,36.7394421,-119.78483
Fukuoka,17.0,10.000556834029576,-31.4,17.008825499685276,66.6,33.6251241,130.6180016
Gaborone,21.0,9.993495256228922,-27.7,21.0017063048584,75.9,-24.6581357,25.9088474
Gabès,19.5,9.996686993881612,-31.1,19.49630249735671,70.5,33.8878082,10.10044
Gagnoa,26.0,10.006048485632672,-25.7,26.00159150569102,75.2,6.1334787,-5.9510987
Gangtok,15.2,10.007187488679792,-37.6,15.21094001215649,63.9,27.329046,88.6122673
Garissa,29.3,10.002421643991642,-20.8,29.295085974167268,79.2,-0.52363325,40.35640534962073
Garoua,28.3,9.999411237524887,-22.7,28.290401093421934,78.2,9.3070698,13.3934527
George Town,27.9,9.998502243861845,-20.8,27.900697186021585,77.9,5.4141619,100.3287352
Ghanzi,21.4,9.99637968041528,-26.7,21.3959605232674,70.5,-22.145794,22.7610828
Gjoa Haven,-14.4,10.001027794142615,-64.0,-14.404596592563156,36.5,68.64252755,-95.87829702808895
Guadalajara,20.9,10.00095242273322,-27.3,20.89688179831476,73.5,20.6720375,-103.338396
Guangzhou,22.4,10.00004257966086,-28.8,22.39947830898445,72.0,23.1301964,113.2592945
Guatemala City,20.4,10.002203147438973,-30.5,20.39168539993708,70.3,14.6416142,-90.5132836
Halifax,7.5,10.00654144502226,-42.7,7.501111231818346,63.2,44.648618,-63.5859487
Hamburg,9.7,10.005295312299292,-42.8,9.69668243685314,59.8,53.550341,10.000654
Hamilton,13.8,10.005481118329042,-39.4,13.793171734232374,62.7,43.2560802,-79.8728583
Hanga Roa,20.5,9.998304210363862,-30.3,20.502809415964435,71.0,-27.1481172,-109.427344
Hanoi,23.6,10.003412956673836,-25.1,23.60217210677594,72.6,21.0283334,105.854041
Harare,18.4,9.995152981043471,-33.0,18.409871081624047,67.8,-17.8567035,31.0601584
Harbin,5.0,9.998581606080265,-45.6,5.0032431684680985,57.6,45.7593633,126.6276177
Hargeisa,21.7,10.001463310381562,-23.8,21.695052337079343,68.3,9.561733,44.061803
Hat Yai,27.0,10.002126229030292,-19.6,27.002237579046973,79.4,7.0074644,100.4689889
Havana,25.2,10.00509301088259,-24.2,25.20462248686128,75.0,23.135305,-82.3589631
Helsinki,5.9,9.996617960486534,-44.3,5.908123098019484,55.3,60.1674881,24.9427473
Heraklion,18.9,9.997389991806775,-31.9,18.912140286247745,65.8,35.33908,25.1332843
Hiroshima,16.3,9.996176065828788,-34.4,16.302222155308748,63.8,34.3917241,132.4517589
Ho Chi Minh City,27.4,9.993271076195578,-28.2,27.4067658472358,78.5,10.7763897,106.7011391
Hobart,12.7,10.00157493489506,-35.4,12.703204970492765,61.1,-42.8825088,147.3281233
Hong Kong,23.3,10.001612784282193,-26.7,23.30635787205411,75.9,22.350627,114.1849161
Honiara,26.5,9.99619624223289,-27.1,26.495961221575783,77.1,-9.4310769,159.9552552
Honolulu,25.4,10.005286360942538,-24.3,25.395190057953677,72.1,21.304547,-157.855676
Houston,20.8,10.003232668916487,-28.5,20.79633961479936,72.8,29.7589382,-95.3676974
Ifrane,11.4,9.999482935956475,-40.8,11.390832899990196,62.7,33.527605,-5.107408
Indianapolis,11.8,10.003212081438026,-38.4,11.808245014193268,64.6,39.7683331,-86.1583502
Iqaluit,-9.3,9.997827317921752,-58.0,-9.306898304923722,37.7,63.7492738,-68.5213763
Irkutsk,1.0,9.995392215068026,-47.1,1.0054872408952018,51.7,52.2891225,104.279829
Istanbul,13.9,10.00125213108275,-34.3,13.90331420560879,62.8,41.006381,28.9758715
Jacksonville,20.3,9.999461915730343,-29.5,20.29767052269505,72.0,30.3321838,-81.655651
Jakarta,26.7,9.996058607799682,-23.5,26.68860071649806,78.8,-6.1754049,106.827168
Jayapura,27.0,10.004078637004932,-21.1,26.993452922024243,79.1,-2.5387539,140.7037389
Jerusalem,18.3,10.006423839498147,-28.6,18.302193551530824,66.1,31.7788242,35.2257626
Johannesburg,15.5,10.00068349464863,-34.3,15.504356049492522,64.0,-26.205,28.049722
Jos,22.8,10.002250493144784,-25.7,22.808908820034667,70.9,9.9175125,8.8979401
Juba,27.8,9.995701021349614,-19.3,27.805059440829517,75.6,4.8459246,31.5959173
Kabul,12.1,9.994269653305626,-39.4,12.093311234171598,62.8,34.5266431,69.1849082
Kampala,20.0,10.011902586167713,-30.8,20.00163097552481,67.7,0.3177137,32.5813539
Kandi,27.7,10.001744894170184,-25.9,27.69748403791816,76.2,11.1311029,2.9322321
Kankan,26.5,10.00157580256819,-28.0,26.505740649863274,76.6,10.6248355,-9.3175166
Kano,26.4,10.002750093531509,-32.5,26.411945019712753,75.3,11.9918671,8.5303654
Kansas City,12.5,10.0053062225575,-38.7,12.513091387497344,63.8,39.100105,-94.5781416
Karachi,26.0,9.997064205466984,-22.8,26.002910100171984,78.6,24.8546842,67.0207055
Karonga,24.4,10.004297376714396,-24.4,24.395396207581935,72.6,-10.08474695,33.86619181196623
Kathmandu,18.3,10.000337846786744,-30.6,18.29788942089403,65.6,27.708317,85.3205817
Khartoum,29.9,9.998492676539058,-21.2,29.903877304657293,80.1,15.5635972,32.5349123
Kingston,27.4,9.999766295677276,-23.3,27.405573663974295,77.9,17.9712148,-76.7928128
Kinshasa,25.3,10.00728813286975,-27.5,25.29316604450793,72.6,-4.3196982,15.3424196
Kolkata,26.7,9.998445336123876,-20.9,26.688397197592028,77.5,22.5726459,88.3638953
Kuala Lumpur,27.3,10.002373825101795,-22.9,27.28945600375421,77.4,3.1526589,101.7022205
Kumasi,26.0,10.000398696596948,-25.3,26.017963065205542,77.5,6.6985605,-1.6233086
Kunming,15.7,10.00187769617298,-32.2,15.705446133318466,65.3,25.0363006,102.7086139
Kuopio,3.4,10.003141354632548,-45.0,3.407391054143362,60.5,62.8924601,27.6781839
Kuwait City,25.7,10.0051113913492,-26.7,25.702202530391123,73.5,29.3796532,47.9734174
Kyiv,8.4,9.998045155780384,-41.8,8.389009530509112,57.0,50.4500336,30.5241361
Kyoto,15.8,9.991713515423069,-37.4,15.799778597115342,64.7,35.021041,135.7556075
La Ceiba,26.2,10.001450748231758,-23.4,26.214297417974027,78.1,15.7833743,-86.7917749
La Paz,23.7,10.0019441616712,-27.2,23.715883336867183,75.4,-16.4955455,-68.1336229
Lagos,26.8,9.999315796175187,-25.8,26.810072716121105,77.9,6.4550575,3.3941795
Lahore,24.3,10.003703830896155,-24.9,24.297520400836486,72.4,31.5656822,74.3141829
Lake Havasu City,23.7,10.005005705626726,-31.5,23.70096498265147,75.1,34.4775296,-114.3379972
Lake Tekapo,8.7,9.996174820285972,-39.5,8.699360837107061,56.6,-44.0045194,170.4777273
Las Palmas de Gran Canaria,21.2,10.001459496694364,-27.0,21.209339465148897,73.0,28.1288694,-15.4349015
Las Vegas,20.3,9.998897314519612,-28.7,20.305979453097912,69.7,36.1672559,-115.148516
Launceston,13.1,10.000939842567618,-36.8,13.093233507516688,61.9,-41.4340813,147.1373496
Lhasa,7.6,10.00054457329086,-42.1,7.600519550878773,61.6,29.6542054,91.1173015
Libreville,25.9,10.002965582915309,-28.2,25.90182988866303,75.0,0.4086518,9.4418849
Lisbon,17.5,9.993818266666963,-29.6,17.501832039564412,70.6,38.7077507,-9.1365919
Livingstone,21.8,10.000005603318035,-32.9,21.809185941076777,70.0,-17.853135,25.861429
Ljubljana,10.9,9.99584914298839,-38.5,10.89897360286082,62.4,46.0500268,14.5069289
Lodwar,29.3,9.99854629499958,-18.4,29.301284241799394,83.7,3.1165858,35.6022943
Lomé,26.9,10.001968440933938,-24.3,26.903267216936772,75.3,6.130419,1.215829
London,11.3,9.997120028157823,-38.1,11.292640784489858,60.8,51.4893335,-0.14405508452768728
Los Angeles,18.6,10.000398986394709,-26.7,18.5934348195357,66.8,34.0536909,-118.242766
Louisville,13.9,9.998661289982229,-34.2,13.892522450772638,62.5,38.2542376,-85.759407
Luanda,25.8,9.995830923991022,-25.9,25.80315152181107,81.4,-8.8272699,13.2439512
Lubumbashi,20.8,10.001202826026482,-29.5,20.794042712595505,69.1,-11.6642316,27.4826264
Lusaka,19.9,9.994531386024333,-28.7,19.905008255956968,69.0,-15.4163395,28.2818414
Luxembourg City,9.3,9.993462749221154,-41.9,9.302687760153088,60.9,49.6112768,6.129799
Lviv,7.8,10.001263535714676,-44.8,7.797163760082439,57.1,49.841952,24.0315921
Lyon,12.5,9.998412874666837,-35.2,12.510174615374137,59.8,45.7578137,4.8320114
Madrid,15.0,9.993722908117464,-33.4,14.992512612796167,63.6,40.4167047,-3.7035825
Mahajanga,26.3,10.003449382247805,-23.1,26.295393634010985,76.3,-15.7181492,46.3172577
Makassar,26.7,9.99747884910246,-22.0,26.697920770481616,85.6,-5.1342962,119.4124282
Makurdi,26.0,9.998292316433496,-26.9,26.004177052897333,82.2,7.7312634,8.538425
Malabo,26.3,10.001389888187656,-29.5,26.300140607865583,74.6,3.741877,8.7740663
Malé,28.0,9.998717106947309,-26.1,27.99827796616332,79.9,4.1779879,73.5107387
Managua,27.3,9.999499535924375,-20.0,27.308142357400115,78.0,12.1544035,-86.2737642
Manama,26.5,10.00102211600734,-26.5,26.495409856516986,73.6,26.2235041,50.5822436
Mandalay,28.0,9.997533101001476,-22.4,28.00846565413563,74.6,21.9596834,96.0948743
Mango,28.1,10.000189843672857,-21.8,28.09970439901212,77.7,44.686443,8.150239
Manila,28.4,9.995989338826272,-23.4,28.400102233861546,80.4,14.5904492,120.9803621
Maputo,22.8,9.998274107319594,-33.5,22.80399660229313,72.9,-25.966213,32.56745
Marrakesh,19.6,9.999957212217712,-28.7,19.599957718921353,68.9,31.6258257,-7.9891608
Marseille,15.8,10.000952221122972,-35.5,15.80316188465996,62.9,43.2961743,5.3699525
Maun,22.4,9.998646320806191,-27.2,22.41525925595458,75.0,-19.9860951,23.4224352
Medan,26.5,9.995542190446706,-23.3,26.50768217616857,76.7,3.5896654,98.6738261
Mek'ele,22.7,10.00283366125608,-28.2,22.698311284307113,72.8,13.4966644,39.4768259
Melbourne,15.1,10.002344248049967,-35.0,15.10109460032366,65.8,-37.8142454,144.9631732
Memphis,17.2,9.995369388757124,-35.5,17.195410457320605,64.7,35.1460249,-90.0517638
Mexicali,23.1,9.996437448720895,-24.7,23.108884021208976,78.7,32.6405247,-115.474899
Mexico City,17.5,10.00284698556412,-33.1,17.507152326698865,68.6,19.4326296,-99.1331785
Miami,24.9,9.998685033450128,-27.3,24.89303395159923,72.8,25.7741728,-80.19362
Milan,13.0,9.998291694320606,-36.6,13.006899182178254,62.4,45.4641943,9.1896346
Milwaukee,8.9,9.999558318197607,-41.8,8.896421928479866,58.9,43.0386475,-87.9090751
Minneapolis,7.8,9.992402396751986,-39.0,7.801062547316957,55.7,44.9772995,-93.2654692
Minsk,6.7,10.003873952912947,-43.9,6.701100124308063,54.0,53.9024716,27.5618225
Mogadishu,27.1,9.99865250942424,-24.8,27.10807442798445,77.8,2.0349312,45.3419183
Mombasa,26.3,10.003880312096022,-22.3,26.306111103767556,75.1,-4.05052,39.667169
Monaco,16.4,9.997495955732328,-32.3,16.401574746545382,65.2,43.7323492,7.4276832
Moncton,6.1,9.992812340746436,-48.5,6.1076651245058935,53.7,46.0985679,-64.8004265
Monterrey,22.3,9.994461056861317,-32.8,22.30068975407905,75.2,25.6802019,-100.315258
Montreal,6.8,9.998495770175523,-42.8,6.802673304086068,56.0,45.5031824,-73.5698065
Moscow,5.8,9.99828445220795,-43.6,5.789543633109006,54.6,55.625578,37.6063916
Mumbai,27.1,10.001274185133122,-24.0,27.099051788582393,79.3,19.054999,72.8692035
Murmansk,0.6,10.003127233815604,-48.4,0.5930073404361637,48.0,68.970665,33.07497
Muscat,28.0,9.999549006336204,-22.8,27.994929248255723,77.9,23.5882019,58.3829448
Mzuzu,17.7,10.0067502700939,-32.1,17.688309984998465,66.6,-11.4607518,34.0226422
N'Djamena,28.3,10.008249759905292,-20.3,28.299261222221983,78.9,12.1191543,15.0502758
Naha,23.1,10.00008287050298,-25.6,23.10418865183382,73.9,26.2122345,127.6791452
Nairobi,17.8,9.997380889070511,-33.6,17.809744865562493,68.6,-1.2832533,36.8172449
Nakhon Ratchasima,27.3,9.994834735741096,-23.3,27.303007506681105,77.4,14.9747339,102.0981161
Napier,14.6,9.999400228930996,-34.7,14.604939736819622,63.7,-39.4902099,176.917839
Napoli,15.9,10.003867804767896,-34.3,15.90667278727738,71.0,40.8358846,14.2487679
Nashville,15.4,9.99649770162482,-31.3,15.407742466303413,65.9,36.1622767,-86.7742984
Nassau,24.6,10.000705572474008,-23.5,24.597848731949597,72.5,25.0782266,-77.3383438
Ndola,20.3,10.005721635915355,-27.8,20.308521006646888,70.5,-12.9693056,28.6365894
New Delhi,25.0,9.9981993363907,-22.2,25.00696492688648,75.3,28.64308585,77.21926705734865
New Orleans,20.7,9.994834069354372,-30.6,20.706996963374564,71.0,29.9759983,-90.0782127
New York City,12.9,9.99076815336136,-35.0,12.897562019137458,62.2,40.7127281,-74.0060152
Ngaoundéré,22.0,10.002405646721698,-26.4,22.002551741664657,73.0,7.3211536,13.5878214
Niamey,29.3,9.996761668845917,-19.6,29.287701195498993,78.8,13.524834,2.109823
Nicosia,19.7,10.009690496885009,-30.3,19.709753936398855,67.8,35.1746503,33.3638783
Niigata,13.9,10.002467142387063,-35.3,13.904082001935908,63.5,37.6452283,138.7669125
Nouadhibou,21.3,9.99554434076537,-29.6,21.305233515411373,68.3,20.9127045,-17.0503094
Nouakchott,25.7,9.991260331784272,-25.8,25.69839642912769,74.4,18.0792379,-15.9780071
Novosibirsk,1.7,10.003829936816606,-50.7,1.694085844237192,50.5,54.96781445,82.95159894278376
Nuuk,-1.4,9.995569853379337,-51.3,-1.3984279111506663,46.5,64.1766835,-51.7359356
Odesa,10.7,9.999814910510452,-40.6,10.70344621764911,61.7,46.4843023,30.7322878
Odienné,26.0,9.994879060861829,-24.5,26.001727566677587,73.8,9.504431,-7.561942
Oklahoma City,15.9,9.994543680515584,-36.9,15.894423288056432,64.9,35.4729886,-97.5170536
Omaha,10.6,9.99887455400962,-37.5,10.611000472141,59.0,41.2587459,-95.9383758
Oranjestad,28.1,9.994877128411414,-21.4,28.095100633373647,74.4,12.5201024,-70.0371329
Oslo,5.7,10.000228879503693,-48.7,5.701172770024798,55.4,59.9133301,10.7389701
Ottawa,6.6,9.998948934894086,-44.7,6.603322426793829,56.9,45.4208777,-75.6901106
Ouagadougou,28.3,9.99843324829687,-20.0,28.306186881305685,80.6,12.3681873,-1.5270944
Ouahigouya,28.6,10.000830367953,-26.3,28.595287416146252,75.8,13.580982,-2.417699
Ouarzazate,18.9,9.995977025000538,-30.4,18.89363795654221,66.3,30.920193,-6.910923
Oulu,2.7,9.9985255402169,-49.0,2.698987906235919,53.1,65.0118734,25.4716809
Palembang,27.3,9.995956008388902,-21.4,27.303225360145813,75.9,-2.9888243,104.7568507
Palermo,18.5,9.999116882638129,-29.7,18.50621313415851,68.7,38.1112268,13.3524434
Palm Springs,24.5,9.996309055558545,-29.6,24.494041355622617,75.4,33.8246269,-116.540303
Palmerston North,13.2,9.995558731056375,-35.4,13.212754294489924,61.7,-40.356317,175.6112388
Panama City,28.0,10.003050469707969,-20.9,27.99917166355197,82.5,8.9714493,-79.5341802
Parakou,26.8,10.00399180897922,-20.4,26.798740919736733,79.0,9.3400159,2.6278258
Paris,12.3,10.00478164113437,-37.6,12.302816236262467,63.7,48.8534951,2.3483915
Perth,18.7,10.000298387635102,-33.5,18.692098115016865,68.6,-31.9558933,115.8605855
Petropavlovsk-Kamchatsky,1.9,10.00230818711082,-47.6,1.8879531405305272,53.5,53.0199838,158.6471356
Philadelphia,13.2,10.004789871714747,-38.0,13.210872149698153,68.1,39.9527237,-75.1635262
Phnom Penh,28.3,10.0000210839776,-23.4,28.304416655657604,76.4,11.5730391,104.857807
Phoenix,23.9,9.9980348346434,-26.5,23.89373093355278,73.1,33.4484367,-112.074141
Pittsburgh,10.8,9.99433294728179,-40.9,10.78778838114768,58.8,40.4416941,-79.9900861
Podgorica,15.3,10.003093438872751,-36.0,15.30316551288558,66.6,42.4415238,19.2621081
Pointe-Noire,26.1,9.991736520427263,-25.2,26.104267352100234,75.4,-4.7975373,11.8503297
Pontianak,27.7,9.996804549905534,-23.3,27.697010246489743,76.0,-0.0226903,109.3447488
Port Moresby,26.9,9.992782572406892,-20.6,26.89631946179562,76.4,-9.4743301,147.1599504
Port Sudan,28.4,10.00087450194638,-20.0,28.39121769651241,79.0,19.619217,37.211709
Port Vila,24.3,10.003785114596925,-25.4,24.2963920538505,73.8,-17.7414972,168.3150163
Port-Gentil,26.0,9.997456183513222,-24.8,25.99450908090668,77.1,-0.7151966,8.7787919
Portland (OR),12.4,9.994540160429796,-36.9,12.394534690993616,61.4,45.5202471,-122.674194
Porto,15.7,10.002932482868111,-32.1,15.701094396677442,67.9,41.1494512,-8.6107884
Prague,8.4,10.003814333517877,-44.0,8.39887588599204,59.5,50.0874654,14.4212535
Praia,24.4,9.998722329353075,-26.1,24.402932630652906,72.9,14.9162811,-23.5095095
Pretoria,18.2,10.003318708250506,-30.0,18.20151202141692,69.2,-25.7459277,28.1879101
Pyongyang,10.8,10.00511134326534,-39.4,10.804390050057052,59.4,39.0167979,125.7473609
Rabat,17.2,10.007005672930678,-32.2,17.198380546388904,71.9,34.02236,-6.8340222
Rangpur,24.4,10.007099217101349,-30.2,24.39848755498579,73.5,25.6376135,89.0826381
Reggane,28.3,10.00278499481706,-20.0,28.300978560945616,81.7,26.7207267,0.1751507
Reykjavík,4.3,9.99852223513067,-47.7,4.294095437622155,54.0,64.145981,-21.9422367
Riga,6.2,10.003192791718426,-42.8,6.196517766736715,55.3,56.9493977,24.1051846
Riyadh,26.0,9.99972863508043,-21.0,26.000721882336652,80.4,23.333333,45.333333
Rome,15.2,9.998536501837044,-33.1,15.1947445452015,64.6,41.8933203,12.4829321
Roseau,26.2,9.994744141024334,-20.8,26.2000655750981,75.4,48.7710371,-95.7697882
Rostov-on-Don,9.9,10.003357554024578,-36.5,9.893560461294252,64.2,47.2610441,39.72490856518773
Sacramento,16.3,10.00155331742194,-34.3,16.30616151027967,65.5,38.5810606,-121.493895
Saint Petersburg,5.8,9.992562671504189,-46.0,5.805520343758155,58.3,59.9606739,30.1586551
Saint-Pierre,5.7,9.993040561735048,-47.3,5.699564554775216,54.5,48.3832725,7.4718731
Salt Lake City,11.6,10.011462006723509,-37.1,11.600739283894097,61.5,40.7596198,-111.886797
San Antonio,20.8,10.000217924887528,-28.3,20.80563991484459,71.3,29.4246002,-98.4951405
San Diego,17.8,10.004710929140424,-34.3,17.80419677021668,67.8,32.7174202,-117.162772
San Francisco,14.6,10.001645131901244,-38.6,14.601285263169215,63.2,37.7792588,-122.4193286
San Jose,16.4,10.000934730132036,-34.1,16.39739939526962,68.5,37.3361663,-121.890591
San José,22.6,10.00121767955067,-31.1,22.59600371889302,71.8,9.9325427,-84.0795782
San Juan,27.2,10.001179074458111,-24.8,27.18282245221289,73.2,18.384239049999998,-66.05343997364733
San Salvador,23.1,10.000911327272322,-24.7,23.09718862478526,71.3,13.6989939,-89.1914249
Sana'a,20.0,9.999771976863856,-29.4,20.000263141378703,70.6,15.3538569,44.2058841
Santo Domingo,25.9,9.998914583755788,-24.5,25.89681226327613,72.0,18.4801972,-69.942111
Sapporo,8.9,10.001194208006227,-42.3,8.89998596173664,58.0,43.061936,141.3542924
Sarajevo,10.1,9.995847296743843,-38.8,10.100648914939946,59.8,43.8519774,18.3866868
Saskatoon,3.3,9.988885140713116,-50.0,3.3013462761019254,54.2,52.131802,-106.660767
Seattle,11.3,9.994036402015174,-38.6,11.30540235404577,60.2,47.6038321,-122.330062
Seoul,12.5,10.006354145753754,-37.1,12.500204529969228,61.0,37.5666791,126.9782914
Seville,19.2,9.998306403231847,-32.5,19.195861870907898,72.9,37.3886303,-5.9953403
Shanghai,16.7,9.99730500113978,-35.3,16.696590468906624,68.1,31.2312707,121.4700152
Singapore,27.0,9.9983908586616,-23.6,27.009650706046056,73.8,1.357107,103.8194992
Skopje,12.4,9.999137981159963,-35.2,12.401931549117425,64.4,41.9961816,21.4319213
Sochi,14.2,9.997229232811264,-38.8,14.19756198816522,62.3,43.5854823,39.723109
Sofia,10.6,10.004811670313256,-38.5,10.610957623524923,58.9,42.6977028,23.3217359
Sokoto,28.0,10.007256594900625,-26.3,28.003809786514953,81.6,13.0611195,5.3152203
Split,16.1,9.996480138005534,-31.6,16.095148919569116,62.5,43.5116383,16.4399659
St. John's,5.0,9.998147775460971,-46.0,5.001472018268659,54.5,47.5614705,-52.7126162
St. Louis,13.9,9.998132237973048,-33.5,13.89547067374963,62.3,38.6280278,-90.1910154
Stockholm,6.6,10.002067581243296,-43.6,6.607858941982231,57.5,59.3251172,18.0710935
Surabaya,27.1,10.006915893807706,-22.0,27.10244551982159,73.6,-7.2459717,112.7378266
Suva,25.6,10.007735222482925,-25.5,25.604158629358665,74.3,-18.1415884,178.4421662
Suwałki,7.2,10.003126652528342,-41.3,7.196084791511929,55.9,54.0990636,22.9279363
Sydney,17.7,10.00000252167269,-31.2,17.700874489061746,67.8,-33.8698439,151.2082848
Ségou,28.0,9.989284778942322,-22.6,28.000693941862767,77.0,13.441518,-6.268147
Tabora,23.0,10.00450903486035,-28.3,22.998918841003473,73.2,-5.1913822,32.5080629
Tabriz,12.6,9.997960783487011,-36.4,12.606194127401409,61.6,38.0738612,46.2978789
Taipei,23.0,9.991964309752197,-27.5,23.00789094254842,75.8,25.0375198,121.5636796
Tallinn,6.4,9.9983707299058,-46.6,6.397332253487917,54.8,59.4372155,24.7453688
Tamale,27.9,9.995033807699626,-26.1,27.905567175329065,78.7,9.4051992,-0.8423986
Tamanrasset,21.7,9.999078858837729,-27.4,21.706066598748695,69.6,24.3753438,4.3208436
Tampa,22.9,9.99775253652149,-28.1,22.89062930399329,72.6,27.9477595,-82.458444
Tashkent,14.8,9.999765033958925,-36.1,14.796965291321632,61.8,41.3123363,69.2787079
Tauranga,14.8,9.998286552755696,-35.4,14.797826048374162,63.4,-37.6859006,176.167505
Tbilisi,12.9,9.99734600675977,-39.7,12.90421556862497,59.7,41.6934591,44.8014495
Tegucigalpa,21.7,10.007152700588662,-27.2,21.70341040159273,70.6,14.1057433,-87.2040052
Tehran,17.0,10.005715577858988,-36.9,17.002701596549993,64.9,35.6892523,51.3896004
Tel Aviv,20.0,9.997666963568326,-30.9,19.992952724246496,68.1,32.0852997,34.7818064
Thessaloniki,16.0,9.996571939670876,-34.4,15.996764619194682,65.3,40.6403167,22.9352716
Thiès,24.0,9.99999911238932,-25.0,24.00023591272839,76.4,14.791461,-16.925605
Tijuana,17.8,9.99131452787307,-31.0,17.793566716087213,70.4,32.5317397,-117.019529
Timbuktu,28.0,9.99579559342602,-21.7,27.992766274294674,77.3,16.7719091,-3.0087272
Tirana,15.2,9.999561312952286,-32.4,15.201925826942771,69.3,41.3281482,19.8184435
Toamasina,23.4,10.001257295190014,-29.7,23.397108451554367,71.5,-18.1553985,49.4098352
Tokyo,15.4,10.00683277991964,-40.4,15.405086436609292,63.1,35.6768601,139.7638947
Toliara,24.1,10.006688092682367,-25.8,24.09629876200873,79.3,-23.354173,43.66966
Toluca,12.4,10.00390210841418,-37.9,12.403316579841336,64.8,19.292545,-99.6569007
Toronto,9.4,10.00140859375267,-40.7,9.38780218478312,60.5,43.6534817,-79.3839347
Tripoli,20.0,10.00024698803048,-30.8,19.993844060261345,68.9,32.896672,13.1777923
Tromsø,2.9,10.001131212544008,-45.6,2.894564226120464,49.9,69.6516345,18.9558585
Tucson,20.9,9.999938402269905,-26.9,20.898499707453496,69.9,32.2228765,-110.974847
Tunis,18.4,9.998919146161995,-31.7,18.39997903808371,71.1,36.8002068,10.1857757
Ulaanbaatar,-0.4,10.007786135353076,-52.9,-0.3986769829781684,54.1,47.9184676,106.9177016
Upington,20.4,10.004891608874756,-28.2,20.404116865157363,69.3,-28.456325,21.241867
Vaduz,10.1,10.003482303458602,-39.5,10.097162291949257,62.5,47.1392862,9.5227962
Valencia,18.3,10.00609597118459,-33.7,18.298501270071615,68.5,39.4697065,-0.3763353
Valletta,18.8,9.991767095493406,-31.6,18.80790983620124,67.7,35.8989979,14.5136607
Vancouver,10.4,9.99836841342998,-41.8,10.397753971756144,61.4,49.2608724,-123.113952
Veracruz,25.4,9.997507592265665,-23.1,25.398300221462243,73.1,19.333333,-96.666667
Vienna,10.4,10.003146942860434,-37.5,10.394986030081174,64.1,48.2083537,16.3725042
Vientiane,25.9,9.994841057422212,-28.2,25.8958678992612,73.4,17.9640988,102.6133707
Villahermosa,27.1,9.999814289188064,-21.7,27.085876761090976,77.6,17.9884657,-92.9366326
Vilnius,6.0,9.999220666622772,-43.1,5.997513413686161,55.5,54.6870458,25.2829111
Virginia Beach,15.8,9.996281957370478,-37.8,15.804666900151409,66.1,36.8496579,-75.9760751
Vladivostok,4.9,10.00115257066286,-46.8,4.900431742045279,52.4,43.1150678,131.8855768
Warsaw,8.5,9.997938972290608,-40.4,8.50477621245777,56.6,52.2337172,21.071432235636493
"Washington, D.C.",14.6,9.992372401853643,-42.3,14.602666494321268,64.0,38.8950368,-77.0365427
Wau,27.8,9.999228362506994,-23.6,27.805646536680243,84.4,7.7001398,27.9909335
Wellington,12.9,9.995303132153635,-34.6,12.899436962666815,65.9,-41.2887953,174.7772114
Whitehorse,-0.1,10.0021694349731,-49.7,-0.0940913959521288,50.0,60.721571,-135.054932
Wichita,13.9,9.996617684849776,-43.2,13.892858478251082,64.1,37.68118565,-97.38720322122725
Willemstad,28.0,9.999257484295134,-22.8,28.014328355623107,75.2,12.110006949999999,-68.9370850600204
Winnipeg,3.0,10.009625294247485,-45.5,2.99201318215461,54.0,49.8955367,-97.1384584
Wrocław,9.6,9.994440063568748,-43.2,9.599790915853871,61.9,51.1089776,17.0326689
Xi'an,14.1,10.004483882351714,-33.9,14.095007024075056,62.4,34.261004,108.9423363
Yakutsk,-8.8,10.0132591377223,-57.2,-8.805249672863543,40.0,62.0274078,129.7319787
Yangon,27.5,10.004763644808662,-20.0,27.493512768651964,73.7,16.7967129,96.1609916
Yaoundé,23.8,10.00146270076257,-23.9,23.798494194732047,70.3,3.8689867,11.5213344
Yellowknife,-4.3,9.997490280576445,-53.0,-4.288686712382758,47.4,62.47496825,-114.4304652775906
Yerevan,12.4,10.00222725855418,-35.4,12.400328935264346,62.0,40.1777112,44.5126233
Yinchuan,9.0,9.992060304544996,-39.5,9.007872560615018,62.6,38.4852037,106.2261926
Zagreb,10.7,9.993274698346486,-42.1,10.693993411210355,60.1,45.8130967,15.9772795
Zanzibar City,26.0,10.006600648259754,-25.1,25.9983280874371,73.7,-6.1664908,39.2074312
Zürich,9.3,10.004143913365445,-39.9,9.287286335905485,61.9,47.3744489,8.5410422
Ürümqi,7.4,9.997528645413627,-42.8,7.39885730648276,58.7,43.8244074,87.6139038
İzmir,17.9,9.991472368752833,-33.5,17.909002263503186,69.1,38.23166,27.02997
